[
    {
        "id": 1,
        "name": "National Museum",
        "location": "Janpath, New Delhi",
        "description": "One of the largest museums in India, offering a wide range of collections.",
        "city": "New Delhi",
        "state": "Delhi"
    },
    {
        "id": 2,
        "name": "Indian Museum",
        "location": "Jawaharlal Nehru Road, Kolkata",
        "description": "The oldest and largest museum in India, with rare collections of antiques.",
        "city": "Kolkata",
        "state": "West Bengal"
    },
    {
        "id": 3,
        "name": "Chhatrapati Shivaji Maharaj Vastu Sangrahalaya",
        "location": "Fort, Mumbai",
        "description": "A museum with a collection of ancient artifacts and sculptures.",
        "city": "Mumbai",
        "state": "Maharashtra"
    },
    {
        "id": 4,
        "name": "Government Museum",
        "location": "Pantheon Road, Egmore, Chennai",
        "description": "The second oldest museum in India, known for its rich collection of artifacts.",
        "city": "Chennai",
        "state": "Tamil Nadu"
    }]
    